,City Name,Lat,Lng,Temp,Humidity,Cloudiness,Wind Speed,Country,Date
0,Hofn,64.25,-15.21,54.32,85,100,13.65,IS,1593296014
1,Rikitea,-23.12,-134.97,70.54,75,0,17.16,PF,1593295847
2,Busselton,-33.65,115.33,60.01,75,100,22.15,AU,1593295847
3,Huilong,31.81,121.66,78.01,99,100,1.99,CN,1593296078
4,Idrinskoye,54.37,92.14,58.6,86,3,2.53,RU,1593296078
5,San Jose,37.34,-121.89,90.0,51,20,13.87,US,1593295801
6,Ushuaia,-54.8,-68.3,37.4,64,40,19.46,AR,1593295817
7,Jamestown,42.1,-79.24,73.99,78,90,8.05,US,1593296030
8,Margate,51.38,1.39,62.01,80,99,8.01,GB,1593296079
9,Paralímni,35.04,33.98,77.0,94,20,5.82,CY,1593296079
10,Gibara,21.11,-76.13,86.0,70,40,17.22,CU,1593296079
11,Bluff,-46.6,168.33,49.12,91,100,6.31,NZ,1593296079
12,Ilulissat,69.22,-51.1,39.2,80,75,4.7,GL,1593296079
13,Ondjiva,-17.07,15.73,56.16,36,0,5.37,AO,1593296079
14,Aklavik,68.22,-135.01,51.8,46,75,11.41,CA,1593296017
15,Chanika,-5.42,38.02,62.37,99,21,1.97,TZ,1593296079
16,Nishihara,26.18,127.76,82.4,88,75,10.29,JP,1593296030
17,Manuk Mangkaw,4.8,119.85,78.46,82,100,9.15,PH,1593296079
18,Wuxi,31.57,120.29,81.0,85,100,13.51,CN,1593295804
19,Deshnok,27.8,73.34,92.14,47,0,21.41,IN,1593296079
20,Bethel,41.37,-73.41,73.99,95,100,10.51,US,1593296004
21,Tefé,-3.35,-64.71,87.8,74,20,5.82,BR,1593296080
22,Hilo,19.73,-155.09,82.4,61,20,6.93,US,1593296080
23,Lompoc,34.64,-120.46,70.0,68,10,14.99,US,1593296080
24,Nikolskoye,59.7,30.79,66.99,63,34,2.24,RU,1593296080
25,Fort-Shevchenko,44.51,50.26,70.45,53,0,5.48,KZ,1593296080
26,Dikson,73.51,80.55,45.34,82,0,8.97,RU,1593295999
27,Eniwa,42.88,141.54,64.0,100,75,8.05,JP,1593296080
28,New Norfolk,-42.78,147.06,39.0,93,21,2.84,AU,1593296007
29,Caxito,-8.58,13.66,71.6,83,75,3.36,AO,1593296080
30,Saskylakh,71.92,114.08,52.59,62,24,3.06,RU,1593295884
31,Tiksi,71.69,128.87,49.46,78,69,10.63,RU,1593296080
32,Te Anau,-45.42,167.72,43.14,85,90,3.31,NZ,1593296081
33,Ulkan,57.24,107.32,65.32,67,3,3.78,RU,1593296081
34,Udachny,66.42,112.4,64.4,63,77,2.24,RU,1593295825
35,Forsytheganj,52.63,29.73,66.96,82,100,7.96,BY,1593296020
36,Rock Springs,41.59,-109.2,84.2,16,20,21.92,US,1593296081
37,Saint Paul Harbor,57.79,-152.41,53.6,66,1,5.82,US,1593296003
38,Avarua,-21.21,-159.78,75.2,60,26,16.11,CK,1593296081
39,Neuquén,-38.95,-68.06,35.6,100,75,10.96,AR,1593296081
40,Leningradskiy,69.38,178.42,32.34,97,100,15.64,RU,1593296081
41,Palmer,42.16,-72.33,68.0,88,90,3.76,US,1593295857
42,Hermanus,-34.42,19.23,55.0,80,47,4.0,ZA,1593296082
43,Dicabisagan,17.08,122.42,79.92,74,100,1.95,PH,1593296082
44,Albany,42.6,-73.97,69.01,85,100,2.15,US,1593296082
45,Shiyan,32.65,110.78,71.69,90,100,2.46,CN,1593296082
46,Naze,28.37,129.48,80.6,94,75,19.46,JP,1593296082
47,Tasiilaq,65.61,-37.64,44.6,87,100,5.82,GL,1593296082
48,Saint George,37.1,-113.58,102.99,7,1,14.99,US,1593296012
49,Longyearbyen,78.22,15.64,46.4,65,40,4.7,SJ,1593296082
50,Port Alfred,-33.59,26.89,60.87,71,81,27.67,ZA,1593295843
51,Hong Kong,22.29,114.16,82.0,83,97,8.99,HK,1593296082
52,Butaritari,3.07,172.79,82.83,75,46,17.47,KI,1593296083
53,Rahā,26.23,92.52,75.09,95,96,3.42,IN,1593296083
54,Meulaboh,4.14,96.13,75.78,87,51,3.56,ID,1593296083
55,Mahébourg,-20.41,57.7,71.6,83,40,6.93,MU,1593296083
56,Chokurdakh,70.63,147.92,57.38,37,100,13.2,RU,1593296083
57,Puerto Ayora,-0.74,-90.35,80.6,57,58,17.22,EC,1593295846
58,Katsuura,35.13,140.3,73.0,93,100,1.01,JP,1593296083
59,Tual,-5.67,132.75,80.37,82,95,23.44,ID,1593295859
60,Omsukchan,62.53,155.8,65.34,37,2,12.37,RU,1593296083
61,Thompson,55.74,-97.86,69.8,68,90,2.24,CA,1593296007
62,Hamilton,39.18,-84.53,79.0,74,20,8.05,US,1593296062
63,Hobart,-42.88,147.33,39.0,93,20,8.05,AU,1593296027
64,Atuona,-9.8,-139.03,79.93,75,10,9.71,PF,1593295850
65,Juegang,32.32,121.19,77.0,95,100,1.01,CN,1593296084
66,Barrow,71.29,-156.79,62.6,45,20,16.11,US,1593295801
67,Carnarvon,-24.87,113.63,62.6,100,90,6.93,AU,1593296084
68,Mataura,-46.19,168.86,43.02,92,100,2.3,NZ,1593295847
69,Punta Arenas,-53.15,-70.92,37.4,59,0,6.93,CL,1593296084
70,Kapaa,22.08,-159.32,81.0,74,90,14.99,US,1593295873
71,Ilula,-7.68,36.04,59.0,72,5,5.01,TZ,1593296084
72,Port Hardy,50.7,-127.42,60.8,67,40,17.22,CA,1593296084
73,Mar del Plata,-38.0,-57.56,44.01,93,90,4.7,AR,1593295865
74,Souillac,-20.52,57.52,69.8,88,20,8.05,MU,1593295867
75,Salinópolis,-0.61,-47.36,79.3,85,19,9.69,BR,1593296084
76,Samarai,-10.62,150.67,78.78,83,100,17.07,PG,1593296085
77,Severo-Kuril'sk,50.68,156.12,53.22,56,97,9.33,RU,1593295890
78,Narimanov,46.69,47.85,68.0,52,0,11.18,RU,1593296085
79,Pochutla,15.74,-96.47,87.8,66,90,11.41,MX,1593296085
80,Vaini,-21.2,-175.2,80.6,78,40,9.17,TO,1593296085
81,Kiryat Gat,31.61,34.76,73.99,83,0,1.57,IL,1593296085
82,Domoni,-12.26,44.53,74.89,81,21,5.39,KM,1593296085
83,Viedma,-40.81,-63.0,41.09,71,57,5.46,AR,1593296085
84,Port Elizabeth,-33.92,25.57,55.4,87,90,26.4,ZA,1593296085
85,Crossville,35.95,-85.03,77.0,69,20,8.05,US,1593295845
86,Torbay,47.67,-52.73,55.0,93,90,4.7,CA,1593295882
87,Neryungri,56.67,124.65,62.87,61,42,0.67,RU,1593296086
88,Tilichiki,60.47,166.1,56.84,60,44,9.33,RU,1593296086
89,Santiago,-33.46,-70.65,55.4,58,90,1.25,CL,1593296079
90,Payo,-3.75,103.64,71.51,95,70,2.21,ID,1593296086
91,Jardim,-21.48,-56.14,62.19,79,100,3.85,BR,1593296086
92,Carauari,-4.88,-66.9,78.48,91,95,2.53,BR,1593296086
93,Hay River,60.82,-115.8,62.6,55,40,8.05,CA,1593295849
94,Kidal,18.44,1.41,89.24,23,2,10.09,ML,1593296086
95,Fortuna,40.6,-124.16,66.0,77,75,17.22,US,1593295850
96,Porto San Giorgio,43.18,13.79,72.0,72,18,3.8,IT,1593296086
97,Gubkinskiy,64.43,76.5,50.09,94,100,13.4,RU,1593296087
98,Sobolevo,54.43,31.9,63.1,88,26,4.36,RU,1593296087
99,Yellowknife,62.46,-114.35,71.01,67,75,6.93,CA,1593296007
100,Belyy Yar,53.6,91.39,57.2,100,0,2.24,RU,1593296087
101,Sinop Province,41.77,34.87,60.48,56,0,3.96,TR,1593296087
102,Sânpaul,46.45,24.35,66.2,88,0,5.82,RO,1593296087
103,Saint-Philippe,-21.36,55.77,69.8,77,20,4.7,RE,1593295848
104,Plettenberg Bay,-34.05,23.37,57.45,69,97,23.4,ZA,1593296087
105,Oranjemund,-28.55,16.43,55.92,72,0,3.06,NA,1593295911
106,Puerto del Rosario,28.5,-13.86,73.4,73,40,19.46,ES,1593296087
107,Botwood,49.15,-55.35,61.0,91,100,3.74,CA,1593296088
108,Znamenskoye,57.13,73.83,50.68,98,100,7.81,RU,1593296088
109,Camaná,-16.62,-72.71,64.49,73,2,5.88,PE,1593296088
110,East London,-33.02,27.91,66.27,30,17,14.5,ZA,1593296010
111,Sola,-13.88,167.55,84.2,83,75,4.7,VU,1593296088
112,Karaton,-6.34,106.1,80.01,83,20,3.36,ID,1593296088
113,Kichera,55.94,110.1,69.13,55,24,2.24,RU,1593296088
114,Comodoro Rivadavia,-45.87,-67.5,35.6,64,0,9.17,AR,1593296088
115,Portland,45.52,-122.68,70.0,52,75,8.05,US,1593295442
116,Vanderhoof,54.02,-124.02,62.01,50,47,7.29,CA,1593296089
117,Gornozavodsk,58.38,58.32,48.33,98,100,0.67,RU,1593296089
118,Ponta do Sol,32.67,-17.1,71.6,78,40,13.87,PT,1593296089
119,Vurnary,55.49,46.96,58.03,96,34,8.88,RU,1593296089
120,Iquique,-20.22,-70.14,62.6,67,75,6.93,CL,1593296089
121,Saldanha,-33.01,17.94,57.2,76,30,4.7,ZA,1593296089
122,Tankhoy,51.55,105.13,56.86,76,43,0.54,RU,1593296089
123,São João da Barra,-21.64,-41.05,73.4,78,1,11.41,BR,1593296090
124,Waipawa,-41.41,175.52,55.0,83,91,11.12,NZ,1593296090
125,Champerico,14.3,-91.92,93.2,52,40,6.93,GT,1593296090
126,Basco,20.45,121.97,84.97,80,100,19.06,PH,1593296090
127,Coahuayana Viejo,18.73,-103.68,86.0,58,40,11.41,MX,1593296090
128,Gornopravdinsk,60.05,69.9,44.82,87,92,3.85,RU,1593296090
129,Celestún,20.87,-90.4,88.65,60,1,17.65,MX,1593296090
130,Airai,-8.93,125.41,55.4,98,23,3.47,TL,1593296003
131,Umm Hājar,13.3,19.7,89.2,34,6,5.95,TD,1593296090
132,Alice Springs,-23.7,133.88,32.0,71,0,5.82,AU,1593296025
133,Bandar-e Lengeh,26.56,54.88,91.4,66,45,6.93,IR,1593296091
134,Bandarbeyla,9.49,50.81,82.63,65,96,29.53,SO,1593296091
135,Touros,-5.2,-35.46,77.0,83,40,5.82,BR,1593295878
136,Matara,5.95,80.54,78.69,88,91,9.55,LK,1593296091
137,Esperance,-33.87,121.9,57.2,50,40,13.87,AU,1593295860
138,Cherëmukhovo,60.35,59.99,47.03,99,100,1.66,RU,1593296091
139,Cape Town,-33.93,18.42,60.01,76,75,4.7,ZA,1593296091
140,Koumac,-20.57,164.28,69.55,62,0,5.68,NC,1593296091
141,La Ronge,55.1,-105.28,59.0,93,90,2.24,CA,1593295885
142,Faya,18.39,42.45,77.0,16,94,3.36,SA,1593295902
143,Grindavik,63.84,-22.43,51.8,93,90,11.41,IS,1593296091
144,Bambous Virieux,-20.34,57.76,73.0,83,40,6.93,MU,1593296092
145,Northam,51.03,-4.22,55.0,91,51,14.0,GB,1593296092
146,Sabang,5.89,95.32,81.82,75,30,8.55,ID,1593296092
147,Vanavara,60.34,102.28,63.21,72,0,4.16,RU,1593296092
148,Huarmey,-10.07,-78.15,67.1,73,42,8.5,PE,1593296025
149,Petropavlovsk-Kamchatskiy,53.05,158.65,66.2,63,7,4.47,RU,1593296092
150,Żurrieq,35.83,14.47,75.99,88,8,5.82,MT,1593296092
151,Bredasdorp,-34.53,20.04,57.2,76,68,17.22,ZA,1593296093
152,Marzuq,14.4,46.47,82.06,37,92,3.36,YE,1593296093
153,Ancud,-41.87,-73.82,48.0,100,90,5.82,CL,1593296093
154,Hithadhoo,-0.6,73.08,84.45,73,79,8.57,MV,1593296094
155,Geraldton,-28.77,114.6,59.0,93,75,12.75,AU,1593295852
156,Evensk,61.95,159.23,53.17,71,30,6.89,RU,1593295927
157,Oktyabr'skiy,54.48,53.47,57.22,93,91,12.26,RU,1593296094
158,Kyzyl-Suu,42.34,78.0,52.16,68,100,4.74,KG,1593296094
159,Vilhena,-12.74,-60.15,74.82,59,41,1.61,BR,1593296094
160,Brody,50.09,25.15,66.02,87,73,8.37,UA,1593296095
161,Bongandanga,1.5,21.05,73.92,89,95,1.72,CD,1593296095
162,Suez,29.97,32.53,74.23,75,0,13.94,EG,1593296095
163,Fairbanks,64.84,-147.72,68.0,45,1,4.12,US,1593296095
164,Clyde River,70.47,-68.59,42.8,87,20,8.05,CA,1593296095
165,Padang,-0.95,100.35,77.63,68,83,2.95,ID,1593296095
166,Vila Franca do Campo,37.72,-25.43,68.0,88,75,6.93,PT,1593296096
167,Santa Fe,-31.63,-60.7,55.0,49,64,1.68,AR,1593295854
168,Coihueco,-36.62,-71.83,55.4,93,75,2.24,CL,1593296096
169,Walvis Bay,-22.96,14.51,52.0,71,0,4.7,NA,1593296096
170,Khorixas,-20.37,14.97,52.7,43,0,3.85,NA,1593296096
171,Sørland,67.67,12.69,55.15,73,90,19.86,NO,1593296097
172,Cabo San Lucas,22.89,-109.91,87.8,48,90,14.99,MX,1593295896
173,Mahon,39.89,4.27,71.6,83,20,2.24,ES,1593296094
174,Tokur,53.13,132.9,60.03,71,100,1.9,RU,1593296097
175,Djebeniana,35.03,10.91,82.4,65,40,5.82,TN,1593296097
176,Cockburn Town,21.46,-71.14,86.0,74,40,11.41,TC,1593296098
177,São Sebastião,-23.76,-45.41,62.76,84,99,1.03,BR,1593296098
178,Miles City,46.41,-105.84,93.2,18,1,5.82,US,1593295942
179,Ust-Nera,64.57,143.2,74.97,34,52,2.33,RU,1593296098
180,Bosilegrad,42.5,22.47,59.7,73,43,1.9,RS,1593296099
181,Wollongong,-34.43,150.88,46.99,88,45,1.99,AU,1593296099
182,Castro,-24.79,-50.01,52.0,97,100,5.53,BR,1593296099
183,Tsaratanana,-16.78,47.65,64.83,72,1,9.82,MG,1593296100
184,Oodweyne,9.41,45.06,77.11,51,77,13.71,SO,1593296100
185,Emerald,-23.53,148.17,53.6,76,90,5.82,AU,1593296100
186,Louth,53.37,0.0,59.0,72,7,17.22,GB,1593296100
187,Goderich,43.75,-81.72,80.01,73,35,11.01,CA,1593296009
188,Sambava,-14.27,50.17,70.9,85,5,11.21,MG,1593296100
189,Beloha,-25.17,45.05,64.42,89,0,6.98,MG,1593296100
190,Krutinka,56.01,71.51,48.7,88,100,14.27,RU,1593296101
191,Prince Rupert,54.32,-130.32,51.8,100,90,8.05,CA,1593296101
192,Dudinka,69.41,86.18,59.0,87,94,6.71,RU,1593296045
193,Hargeisa,9.56,44.06,72.88,58,89,28.23,SO,1593296101
194,Tiarei,-17.53,-149.33,84.2,62,20,5.82,PF,1593296101
195,La Romana,18.43,-68.97,84.2,74,40,6.93,DO,1593296101
196,Arraial do Cabo,-22.97,-42.03,71.6,83,75,14.99,BR,1593296003
197,Batemans Bay,-35.72,150.18,37.99,100,77,4.05,AU,1593296102
198,Abay,49.63,72.85,48.2,93,75,13.42,KZ,1593296102
199,Tuatapere,-46.13,167.68,46.72,84,100,2.77,NZ,1593296102
200,Saint-Pierre,-21.34,55.48,69.8,77,20,4.7,RE,1593296023
201,Channel-Port aux Basques,47.57,-59.14,61.09,75,28,7.67,CA,1593296103
202,Ostrovnoy,68.05,39.51,41.77,84,100,17.02,RU,1593295850
203,Kodinsk,58.69,99.18,63.86,66,92,4.92,RU,1593296103
204,Cherskiy,68.75,161.3,41.61,65,0,14.67,RU,1593296019
205,Ust-Maya,60.42,134.53,69.03,59,6,2.95,RU,1593296103
206,Ambilobe,-13.2,49.05,67.37,85,0,2.77,MG,1593296103
207,Kavieng,-2.57,150.8,82.72,78,79,11.27,PG,1593296023
208,Upernavik,72.79,-56.15,39.47,81,40,7.65,GL,1593295850
209,Flin Flon,54.77,-101.86,62.6,93,90,4.7,CA,1593295908
210,Noyabrsk,63.2,75.45,50.72,96,100,12.35,RU,1593296104
211,Cidreira,-30.18,-50.21,56.1,64,66,7.23,BR,1593296071
212,Bam,29.11,58.36,83.48,15,0,4.29,IR,1593296104
213,Rabaul,-4.2,152.17,80.89,76,98,9.66,PG,1593296104
214,Ranong,9.97,98.63,79.36,83,46,4.7,TH,1593296104
215,Pūnāhāna,27.87,77.2,93.99,4,69,8.97,IN,1593296044
216,Kavaratti,10.57,72.64,83.52,75,59,18.01,IN,1593296105
217,Los Andes,-32.83,-70.6,55.99,99,100,0.58,CL,1593296105
218,Dérac,19.65,-71.82,88.18,63,76,19.17,HT,1593296105
219,Pindiga,9.98,10.93,73.69,85,0,7.52,NG,1593296105
220,Chui,-33.7,-53.46,46.54,77,20,3.58,UY,1593296105
221,Saint Michael,45.21,-93.67,88.0,35,1,2.64,US,1593296105
222,Nerópolis,-16.41,-49.22,80.6,36,18,3.36,BR,1593296105
223,Shache,38.42,77.24,69.39,31,35,9.1,CN,1593296105
224,Anloga,5.79,0.9,78.8,88,40,14.99,GH,1593296105
225,Faanui,-16.48,-151.75,76.86,74,60,15.99,PF,1593296106
226,Rundu,-17.93,19.77,60.8,31,0,3.36,NA,1593296106
227,Ulladulla,-35.35,150.47,45.0,100,90,6.93,AU,1593296106
228,Zeya,53.75,127.27,63.09,75,100,2.21,RU,1593296020
229,Vilyuysk,63.76,121.62,70.54,61,74,1.77,RU,1593296106
230,Miyako,39.64,141.95,69.22,74,100,4.32,JP,1593296046
231,Turaif,31.67,38.66,80.6,34,0,11.41,SA,1593296106
232,Lawton,34.61,-98.39,91.4,49,40,16.11,US,1593296106
233,Vardø,70.37,31.11,44.74,86,98,15.3,NO,1593296107
234,Tiznit Province,29.58,-9.5,68.77,60,0,1.03,MA,1593296107
235,Pangnirtung,66.15,-65.71,49.75,62,69,3.29,CA,1593295870
236,Madang,-5.22,145.8,79.92,85,93,2.64,PG,1593296107
237,Tuktoyaktuk,69.45,-133.04,39.2,86,90,19.46,CA,1593296107
238,Brenham,30.17,-96.4,91.4,59,1,12.75,US,1593296107
239,Wanaka,-44.7,169.15,37.0,91,100,2.21,NZ,1593296107
240,Novoseleznëvo,55.68,69.21,43.84,87,57,8.66,RU,1593296108
241,Ouésso,1.61,16.05,71.29,93,61,1.61,CG,1593296108
242,Nuuk,64.18,-51.72,44.6,75,40,10.29,GL,1593295831
243,Dandong,40.13,124.39,67.17,82,0,3.78,CN,1593296108
244,Sur,22.57,59.53,84.92,73,85,15.14,OM,1593296108
245,Saint-François,46.42,3.91,73.4,60,59,3.36,FR,1593296108
246,Aldama,22.92,-98.07,87.01,75,49,7.0,MX,1593296109
247,Lang Son,21.83,106.73,76.37,94,58,4.18,VN,1593296109
248,Bengkulu,-3.8,102.27,75.99,85,83,4.29,ID,1593296012
249,Tucupita,9.06,-62.05,82.89,72,81,5.64,VE,1593296109
250,Port Lincoln,-34.73,135.87,51.91,52,0,10.92,AU,1593296109
251,Nanortalik,60.14,-45.24,42.94,86,82,2.8,GL,1593296109
252,Cooma,-36.23,149.13,23.0,100,30,1.12,AU,1593296032
253,Chernyshevskiy,63.01,112.47,63.81,83,14,1.72,RU,1593296109
254,Ballina,-28.87,153.57,55.4,93,75,8.05,AU,1593296001
255,Tura,25.52,90.22,73.6,98,96,5.12,IN,1593296109
256,Makkah al Mukarramah,21.43,39.83,93.06,17,0,5.88,SA,1593296109
257,Athens,37.98,23.72,78.01,44,0,7.14,GR,1593295740
258,Kommunisticheskiy,61.68,64.48,48.15,67,79,4.18,RU,1593296110
259,Wuxue,29.85,115.55,78.64,89,100,4.79,CN,1593296110
260,Takahagi,36.72,140.72,70.0,95,100,1.01,JP,1593296110
261,Honningsvåg,70.98,25.97,44.8,85,98,13.49,NO,1593296110
262,Sangar,63.92,127.47,67.21,70,27,1.39,RU,1593296111
263,Rome,43.21,-75.46,73.0,73,75,6.93,US,1593295913
264,Leninsk,48.71,45.2,64.4,42,0,6.71,RU,1593296111
265,Makakilo City,21.35,-158.09,87.8,48,75,6.93,US,1593296111
266,Inhambane,-23.86,35.38,67.64,63,0,10.22,MZ,1593296111
267,Hirara,24.8,125.28,82.4,88,75,12.75,JP,1593296016
268,Norman Wells,65.28,-126.83,62.6,39,75,20.8,CA,1593296111
269,Richards Bay,-28.78,32.04,63.93,66,0,10.51,ZA,1593296111
270,Pisco,-13.7,-76.22,66.2,72,5,5.82,PE,1593296003
271,Ponta Delgada,37.73,-25.67,68.0,88,75,6.93,PT,1593296111
272,Kaeo,-35.1,173.78,55.99,3,1,5.99,NZ,1593296112
273,Yar-Sale,66.83,70.83,44.11,78,0,7.34,RU,1593295862
274,Maizuru,35.45,135.33,73.99,92,100,2.44,JP,1593296112
275,Kumul,42.8,93.45,73.2,39,0,3.36,CN,1593296112
276,Vao,-22.67,167.48,69.84,65,2,15.61,NC,1593296112
277,Muhafazat Lahij,13.17,44.58,88.18,41,99,11.92,YE,1593295852
278,George Town,5.41,100.34,82.4,94,20,4.7,MY,1593296001
279,Beringovskiy,63.05,179.32,42.08,62,28,21.61,RU,1593296113
280,Businga,3.33,20.88,71.47,93,64,1.21,CD,1593296113
281,College,64.86,-147.8,68.0,45,75,3.36,US,1593295850
282,Vestmannaeyjar,63.44,-20.27,52.41,92,100,5.79,IS,1593296029
283,Nurobod,40.91,69.8,59.0,47,0,6.93,UZ,1593296113
284,Maridi,4.92,29.47,66.42,95,91,2.98,SS,1593296113
285,Prescott,34.54,-112.47,89.01,11,1,11.41,US,1593295883
286,Qian’an,44.99,124.06,69.53,69,1,5.5,CN,1593296113
287,Lebu,-37.62,-73.65,52.75,86,100,11.54,CL,1593296112
288,Coari,-4.08,-63.14,83.14,68,50,1.19,BR,1593296113
289,San Cristobal,7.77,-72.22,91.4,49,40,11.41,VE,1593296114
290,Khatanga,71.97,102.5,71.92,46,98,9.93,RU,1593296017
291,Slave Lake,55.28,-114.77,55.4,82,75,10.29,CA,1593296112
292,Fukuechō,32.69,128.84,75.51,91,93,12.1,JP,1593296114
293,San Patricio,19.22,-104.7,89.6,62,40,9.17,MX,1593296109
294,Half Moon Bay,37.46,-122.43,82.0,60,20,8.05,US,1593296114
295,Plaster Rock,46.91,-67.39,73.0,72,90,3.36,CA,1593296114
296,Mossamedes,-15.2,12.15,67.51,82,40,6.31,AO,1593296114
297,Nouadhibou,20.93,-17.03,69.8,77,3,20.8,MR,1593296114
298,Yarensk,62.17,49.09,46.67,94,97,7.67,RU,1593296115
299,Vanimo,-2.67,141.3,79.25,84,100,4.56,PG,1593296115
300,Kumta,14.42,74.4,80.76,83,100,4.14,IN,1593296115
301,Vangaindrano,-23.35,47.6,66.29,92,3,6.85,MG,1593296116
302,Kangaatsiaq,68.31,-53.46,42.89,84,98,9.66,GL,1593296116
303,Jiuquan,39.74,98.52,57.76,60,0,1.99,CN,1593296116
304,Izazi,-7.2,35.73,59.0,72,5,2.46,TZ,1593296116
305,Nurota,40.56,65.69,57.24,35,0,5.5,UZ,1593296116
306,Shenzhen,22.55,114.07,84.0,87,96,1.01,CN,1593296003
307,Dunmore Town,25.5,-76.65,82.76,77,0,11.12,BS,1593296116
308,Tarko-Sale,64.92,77.78,51.01,93,100,12.12,RU,1593296116
309,Namatanai,-3.67,152.43,81.63,79,69,5.79,PG,1593296013
310,Cassilândia,-19.11,-51.73,68.41,83,29,4.21,BR,1593296117
311,Lima,-12.04,-77.03,64.4,77,40,8.05,PE,1593295841
312,Kenitra,34.26,-6.58,69.8,83,40,5.82,MA,1593296112
313,Laureles,26.11,-97.49,91.0,66,75,21.92,US,1593296117
314,Gangoh,29.77,77.25,91.24,40,0,2.46,IN,1593296117
315,Abu Dhabi,24.47,54.37,91.4,75,51,4.7,AE,1593295982
316,Narrabri,-30.32,149.78,42.01,86,5,2.24,AU,1593295892
317,Kahului,20.89,-156.47,86.0,58,20,16.11,US,1593295880
318,Ambon City,-3.7,128.18,75.2,100,75,5.82,ID,1593296118
319,Kohlu,29.9,69.25,82.31,47,0,4.5,PK,1593296118
320,Bhandāra,21.17,79.65,78.8,88,75,3.36,IN,1593296118
321,Codrington,-38.27,141.97,39.78,89,0,7.92,AU,1593296118
322,Quatre Cocos,-20.21,57.76,73.0,83,40,6.93,MU,1593296118
323,Bluefields,12.01,-83.76,75.2,100,75,4.7,NI,1593296118
324,Awjilah,29.11,21.29,77.86,45,0,11.12,LY,1593296114
325,Scarborough,54.28,-0.4,55.0,88,7,5.01,GB,1593296119
326,Ilebo,-4.32,20.58,75.0,58,91,0.4,CD,1593296119
327,Shumskiy,54.83,99.13,57.65,88,9,2.04,RU,1593296119
328,São Gabriel da Cachoeira,-0.13,-67.09,78.76,93,100,1.63,BR,1593296026
329,Fortuna Foothills,32.66,-114.41,107.01,17,1,9.17,US,1593296119
330,Latnaya,51.66,38.9,68.0,64,0,6.71,RU,1593296119
331,Bukachacha,52.98,116.92,61.52,64,3,1.63,RU,1593296026
332,Toora-Khem,52.47,96.11,52.25,88,85,2.08,RU,1593296119
333,Kaitangata,-46.28,169.85,48.99,92,99,4.0,NZ,1593296119
334,Kieta,-6.22,155.63,81.5,74,98,4.32,PG,1593296120
335,Khor,47.89,134.95,60.73,89,100,0.87,RU,1593296120
336,Pandan,14.05,124.17,80.69,78,100,5.39,PH,1593296120
337,Quelimane,-17.88,36.89,71.6,94,41,2.24,MZ,1593296120
338,Fare,-16.7,-151.02,77.59,73,59,16.37,PF,1593296120
339,Sassandra,4.95,-6.08,74.71,87,57,8.41,CI,1593296120
340,Bismarck,46.81,-100.78,96.8,25,20,18.34,US,1593296104
341,Valparaíso,-33.04,-71.63,60.8,48,100,6.26,CL,1593296120
342,Los Arabos,22.73,-80.72,86.32,70,30,14.14,CU,1593296121
343,Amreli,21.62,71.23,84.79,70,100,11.77,IN,1593296121
344,Bousso,10.48,16.71,81.09,68,55,4.23,TD,1593296121
345,Shibetsu,43.66,145.13,51.04,95,100,7.56,JP,1593296121
346,Pontal do Paraná,-25.65,-48.51,46.99,98,100,6.13,BR,1593296121
347,Roald,62.58,6.13,68.0,77,36,6.93,NO,1593296121
348,Ankang,32.68,109.02,72.23,90,100,0.85,CN,1593296121
349,Lock Haven,41.14,-77.45,82.0,84,100,1.01,US,1593296122
350,Bauchi,10.5,10.0,75.81,73,0,9.06,NG,1593296122
351,Qaanaaq,77.48,-69.36,41.54,69,0,1.97,GL,1593296122
352,Praia da Vitória,38.73,-27.07,71.6,83,90,8.37,PT,1593296122
353,Harper,4.38,-7.72,76.21,82,85,9.86,LR,1593296123
354,Nyurba,63.28,118.33,68.32,77,5,1.5,RU,1593296123
355,Riberalta,-10.98,-66.1,77.77,87,60,2.95,BO,1593296123
356,Ternate,0.8,127.4,79.41,80,77,2.1,ID,1593296123
357,Río Gallegos,-51.62,-69.22,28.4,92,0,5.82,AR,1593295907
358,Berlevåg,70.86,29.09,44.24,88,100,16.08,NO,1593296123
359,Hasaki,35.73,140.83,72.0,94,75,5.82,JP,1593296123
360,Tapalpa,19.95,-103.77,73.87,54,72,3.76,MX,1593296123
361,Paso de los Toros,-32.82,-56.52,44.87,72,2,2.35,UY,1593296124
362,Iqaluit,63.75,-68.51,41.0,75,20,8.05,CA,1593296112
363,Lærdal,61.1,7.48,55.99,86,59,4.97,NO,1593296124
364,Lata,40.16,-8.33,68.0,87,13,4.0,PT,1593296124
365,Ribeira Grande,38.52,-28.7,67.8,93,64,7.05,PT,1593296000
366,Mandalgovi,45.76,106.27,67.78,34,100,4.74,MN,1593296124
367,Ürümqi,43.8,87.6,73.4,46,99,4.47,CN,1593296124
368,Mago,53.25,140.18,55.45,78,93,1.52,RU,1593295927
369,Troitsko-Pechorsk,62.71,56.2,42.08,82,95,7.27,RU,1593295875
370,Kupang,-10.17,123.58,69.8,94,20,2.24,ID,1593296124
371,Ahipara,-35.17,173.17,57.99,69,3,13.82,NZ,1593295855
372,Imbituba,-28.24,-48.67,57.2,71,90,6.93,BR,1593296125
373,Solnechnyy,50.72,136.63,62.55,65,62,4.83,RU,1593296125
374,Dingle,11.0,122.67,77.2,88,100,4.83,PH,1593296124
375,Tautira,-17.73,-149.15,84.2,62,20,5.82,PF,1593296125
376,Rancho Veloz,22.88,-80.39,87.8,62,40,17.22,CU,1593296125
377,Katherine,-14.47,132.27,60.8,63,0,3.36,AU,1593296125
378,Lagos,6.58,3.75,80.6,88,20,4.7,NG,1593296082
379,Aykhal,66.0,111.5,64.4,63,89,2.24,RU,1593296125
380,Necochea,-38.55,-58.74,42.01,96,100,1.99,AR,1593296125
381,Laas,46.62,10.7,59.0,77,75,1.12,IT,1593296127
382,Timmins,48.47,-81.33,68.0,82,75,6.93,CA,1593295989
383,Verkhoyansk,67.54,133.38,79.92,36,20,2.64,RU,1593296127
384,Gamba,-2.65,10.0,71.06,87,35,6.4,GA,1593296127
385,Loukísia,38.48,23.45,75.99,52,0,5.82,GR,1593296127
386,Piney Green,34.72,-77.32,89.01,62,75,6.93,US,1593295995
387,Spearfish,44.49,-103.86,90.0,21,1,3.0,US,1593295874
388,Deputatsky,69.3,139.9,66.87,48,84,5.17,RU,1593295856
389,Coquimbo,-29.95,-71.34,59.0,72,98,11.41,CL,1593296127
390,Vila Velha,-20.33,-40.29,77.0,73,6,13.87,BR,1593295987
391,Soyo,-6.13,12.37,72.1,80,0,7.96,AO,1593296128
392,Garissa,-0.45,39.64,74.86,75,0,16.33,KE,1593296128
393,Hilton Head,32.22,-80.75,93.0,43,1,6.93,US,1593296102
394,Los Palacios,22.59,-83.25,87.13,66,9,7.65,CU,1593296128
395,Yarmouth,41.71,-70.23,71.6,88,90,5.82,US,1593295842
396,Puerto Maldonado,-12.6,-69.18,73.65,81,87,3.42,PE,1593296128
397,Jinchang,38.5,102.17,64.54,47,0,4.45,CN,1593296128
398,Chiang Rai,19.91,99.83,77.0,100,20,0.6,TH,1593296128
399,Provideniya,64.38,-173.3,40.87,68,93,14.23,RU,1593295844
400,Kānt,27.8,79.8,87.24,60,99,4.88,IN,1593296129
401,Brae,60.4,-1.35,57.2,100,100,16.11,GB,1593296129
402,Barhi,23.9,80.8,80.15,77,100,8.23,IN,1593296129
403,San Luis,-33.3,-66.34,47.77,51,90,2.1,AR,1593296129
404,Port Macquarie,-31.43,152.92,48.99,98,55,8.52,AU,1593296129
405,Broome,42.25,-75.83,77.0,73,40,6.93,US,1593296129
406,Nioro,13.35,-15.75,82.92,65,79,11.27,GM,1593296129
407,Malanje,-9.54,16.34,61.27,39,61,3.94,AO,1593296130
408,Leh,34.17,77.58,54.97,40,0,5.46,IN,1593295935
409,Puerto Nariño,-3.77,-70.38,87.8,70,40,2.24,CO,1593296130
410,Gürgentepe,40.79,37.6,69.8,83,20,4.7,TR,1593296130
411,Tateyama,34.98,139.87,73.0,100,100,7.31,JP,1593295870
412,Logon,11.33,124.11,82.63,75,100,5.26,PH,1593296130
413,Freetown,8.48,-13.23,77.72,89,100,7.11,SL,1593296101
414,Kutum,14.2,24.67,75.54,42,80,2.42,SD,1593296130
415,Rawson,-43.3,-65.1,38.34,71,0,5.73,AR,1593295902
416,Saint Anthony,45.02,-93.22,88.0,35,40,5.82,US,1593296130
417,Marawi,8.0,124.29,73.0,95,87,5.99,PH,1593296131
418,Brattvåg,62.6,6.44,68.0,77,27,6.93,NO,1593296131
419,Longyan,25.11,117.02,74.89,88,93,2.59,CN,1593296131
420,Mabaruma,8.2,-59.78,79.52,80,47,4.94,GY,1593296131
421,Uray,60.12,64.78,46.08,81,17,4.21,RU,1593296131
422,Garoowe,8.41,48.48,81.91,55,93,28.27,SO,1593296132
423,Wellington,-41.29,174.78,57.2,82,99,18.34,NZ,1593295933
424,Englewood,39.65,-104.99,91.0,14,75,4.7,US,1593296132
425,Mongoumba,3.64,18.59,71.4,96,95,1.92,CF,1593296132
426,Kruisfontein,-34.0,24.73,56.41,72,100,25.97,ZA,1593295888
427,Megion,61.03,76.11,51.8,100,90,8.95,RU,1593296133
428,Dubbo,-32.25,148.62,41.0,93,1,12.75,AU,1593296133
429,Eyl,7.98,49.82,82.2,66,100,24.11,SO,1593296133
430,Port Blair,11.67,92.75,81.97,80,100,7.9,IN,1593296133
431,Marihatag,8.79,126.3,76.89,85,99,6.42,PH,1593296133
432,Yangi Marg`ilon,40.43,71.72,66.2,29,40,4.7,UZ,1593296017
433,Kaffrine,14.11,-15.55,86.0,66,66,9.17,SN,1593296134
434,Fort Nelson,58.81,-122.7,69.8,43,75,11.41,CA,1593296067
435,Usinsk,65.99,57.53,38.41,92,93,7.85,RU,1593296134
436,Mitsamiouli,-11.38,43.28,77.56,77,5,3.98,KM,1593296134
437,Samsun Province,41.25,36.33,71.6,60,40,5.82,TR,1593295952
438,Wajima,37.4,136.9,69.73,86,100,3.69,JP,1593296134
439,Pevek,69.7,170.31,33.12,95,81,21.12,RU,1593295854
440,Alofi,-19.06,-169.92,78.8,74,96,13.87,NU,1593296000
441,Najrān,17.49,44.13,89.6,17,98,4.7,SA,1593296134
442,Furano,43.28,142.47,59.0,93,75,8.05,JP,1593296135
443,Oruzgan,32.83,66.0,68.22,25,0,7.29,AF,1593296135
444,Teya,60.38,92.63,62.83,83,99,1.99,RU,1593296135
445,Alyangula,-13.85,136.42,66.2,93,14,11.61,AU,1593296135
446,Narsaq,60.92,-46.05,51.8,57,62,11.41,GL,1593296135
447,Waitati,-45.75,170.57,51.01,96,100,5.01,NZ,1593296135
448,Las Vegas,36.17,-115.14,107.6,8,1,17.22,US,1593295811
449,Isangel,-19.55,169.27,71.6,78,20,12.93,VU,1593295873
450,Waingapu,-9.66,120.26,73.78,83,66,9.84,ID,1593296024
451,Aleksandrovskoye,44.71,43.0,62.6,48,0,6.71,RU,1593296136
452,Klaksvík,62.23,-6.59,62.6,82,99,13.87,FO,1593296136
453,Xixiang,35.16,112.86,73.0,1,62,3.04,CN,1593296136
454,Nikkō,36.75,139.62,68.0,97,100,5.01,JP,1593296136
455,Agogo,6.8,-1.08,70.63,100,100,5.46,GH,1593296136
456,Sajanan,37.06,9.24,73.4,83,40,2.24,TN,1593296136
457,Lüderitz,-26.65,15.16,57.2,71,0,12.75,NA,1593296108
458,Esna,25.29,32.55,89.6,29,0,4.7,EG,1593296136
459,Aswān,24.09,32.91,86.11,20,0,10.56,EG,1593296137
460,Bouna,9.27,-3.0,73.85,91,80,3.89,CI,1593296137
461,Coyhaique,-45.58,-72.07,33.8,59,75,5.82,CL,1593296137
462,Nueva Concepción,14.2,-91.3,93.2,52,40,6.93,GT,1593296137
463,Haines Junction,60.75,-137.51,70.59,23,65,4.45,CA,1593296137
464,Jumla,29.27,82.18,59.67,71,76,0.92,NP,1593296138
465,Sayyan,15.17,44.32,69.19,34,92,4.63,YE,1593296109
466,Salinas,36.68,-121.66,68.0,64,75,17.22,US,1593296138
467,Banjar,-8.19,114.97,78.8,100,75,13.87,ID,1593296138
468,Denpasar,-8.65,115.22,78.8,100,75,13.87,ID,1593296096
469,Yulara,-25.24,130.99,39.2,55,0,5.82,AU,1593295964
470,Mahajanga,-15.72,46.32,71.6,68,0,4.7,MG,1593296138
471,Nushki,29.55,66.02,76.51,17,1,4.12,PK,1593296138
472,Maniitsoq,65.42,-52.9,40.32,89,92,5.23,GL,1593296139
473,Lorengau,-2.02,147.27,82.53,81,97,11.3,PG,1593295906
474,Mnogovershinnyy,53.94,139.92,45.34,100,97,3.36,RU,1593296139
475,Leer,8.3,30.14,75.0,71,0,2.89,SS,1593296139
476,Skibbereen,51.55,-9.27,50.0,87,20,12.75,IE,1593296139
477,Cairns,-16.92,145.77,69.8,73,40,9.17,AU,1593296139
478,Dabat,12.98,37.77,55.92,98,100,1.21,ET,1593296139
479,Mount Isa,-20.73,139.5,44.6,48,0,2.24,AU,1593295881
480,Fallon,39.47,-118.78,96.8,11,75,23.04,US,1593295926
481,Poopó,-18.37,-66.97,44.51,42,0,1.92,BO,1593296139
482,Paamiut,61.99,-49.67,41.32,84,85,1.28,GL,1593296139
483,Whitehorse,60.72,-135.05,64.99,39,20,12.75,CA,1593295901
484,Snihurivka,47.08,32.81,70.27,64,37,3.8,UA,1593296140
485,Marquette,46.53,-87.63,70.0,63,1,1.99,US,1593296140
486,Crixás,-14.55,-49.97,75.34,53,78,1.43,BR,1593296140
487,Ardakān,32.31,54.02,80.6,30,0,16.11,IR,1593296140
488,Bathsheba,13.22,-59.52,86.0,70,20,18.34,BB,1593296140
489,Avera,33.19,-82.53,87.8,55,1,5.82,US,1593295887
490,Westport,41.14,-73.36,77.0,83,40,5.82,US,1593295972
491,Jieshi,22.81,115.83,81.93,85,100,6.87,CN,1593296141
492,Paita,-5.09,-81.11,68.61,74,77,15.59,PE,1593296141
493,Khovd,48.01,91.64,64.44,33,1,5.03,MN,1593296141
494,Yishui,35.78,118.63,74.97,78,70,1.86,CN,1593296141
495,Tapiramutá,-11.85,-40.79,62.04,97,32,0.83,BR,1593296141
496,Guasdualito,7.24,-70.73,87.8,66,75,4.7,VE,1593296141
497,Clearlake,38.96,-122.63,99.0,33,17,5.99,US,1593296141
498,Nerja,36.76,-3.89,75.99,85,31,3.6,ES,1593295880
499,Verkhnevilyuysk,63.45,120.32,71.31,61,40,0.38,RU,1593296142
500,Syracuse,37.09,15.28,75.2,83,0,5.82,IT,1593296142
501,Guerrero Negro,27.98,-114.06,80.15,45,0,15.37,MX,1593296142
502,Kabanjahe,3.1,98.49,62.53,92,96,2.82,ID,1593296142
503,Rancho Palos Verdes,33.74,-118.39,73.99,73,20,11.41,US,1593295863
504,Nantucket,41.28,-70.1,66.99,93,90,6.93,US,1593296133
505,Pitimbu,-7.47,-34.81,75.2,94,20,6.93,BR,1593296046
506,Bubaque,11.28,-15.83,81.84,85,89,15.39,GW,1593295892
507,Gao,16.64,1.64,94.08,24,54,11.39,ML,1593296143
508,Taltal,-25.4,-70.48,59.56,68,9,3.87,CL,1593296143
509,Nizhniy Tsasuchey,50.52,115.13,67.5,53,53,3.04,RU,1593296143
510,Guozhen,34.37,107.36,68.95,82,87,2.1,CN,1593296143
511,Kurchum,48.57,83.65,59.34,39,100,10.07,KZ,1593296143
512,Río Cauto,20.56,-76.92,86.0,70,40,17.22,CU,1593296143
513,Mórrope,-6.54,-80.01,69.93,67,2,14.9,PE,1593296143
514,Vila,42.03,-8.16,61.0,93,72,7.0,PT,1593296021
515,Ol'ga,43.74,135.29,56.17,94,100,4.52,RU,1593296144
516,Posadas,-27.37,-55.9,59.0,67,28,4.7,AR,1593296144
517,Moosomin,50.13,-101.67,88.3,45,14,10.6,CA,1593296144
518,Santa Vitória do Palmar,-33.52,-53.37,47.08,76,36,3.04,BR,1593296144
519,Tagbac,7.09,125.16,75.2,100,75,3.36,PH,1593296144
520,Tadine,-21.55,167.88,71.58,62,16,11.01,NC,1593296144
521,Zhezkazgan,47.8,67.71,54.0,47,70,6.78,KZ,1593296144
522,Laguna,38.42,-121.42,93.0,39,1,13.87,US,1593296145
523,Santa Cruz do Sul,-29.72,-52.43,48.0,92,59,5.01,BR,1593296145
524,Arrondissement de Langres,47.83,5.33,73.4,73,51,8.05,FR,1593296145
525,São Filipe,14.9,-24.5,74.34,83,0,10.74,CV,1593296021
526,Port Hawkesbury,45.62,-61.35,69.01,94,90,3.36,CA,1593296145
527,Arrondissement de Thionville,49.33,6.33,69.01,82,95,6.89,FR,1593296145
528,Reserva,-24.65,-50.85,54.18,100,90,1.61,BR,1593296145
529,Druzhba,52.04,33.95,63.23,82,0,4.43,UA,1593296145
530,Beli Potok,44.71,20.52,73.4,60,3,8.05,RS,1593296146
531,Gătaia,45.43,21.43,78.8,44,0,17.22,RO,1593296146
532,Andenes,69.31,16.12,48.2,87,94,26.4,NO,1593296104
533,Saint-Augustin,51.23,-58.65,56.8,76,92,13.73,CA,1593296146
534,Yuanping,38.72,112.76,70.21,58,90,0.4,CN,1593296146
535,Henties Bay,-22.12,14.28,52.0,88,0,10.16,NA,1593296146
536,Tazovsky,67.47,78.7,48.34,76,98,3.27,RU,1593296147
537,Grand-Lahou,5.14,-5.02,76.01,85,49,11.03,CI,1593296147
538,Mehamn,71.04,27.85,43.79,88,96,15.17,NO,1593295913
539,Qaqortoq,60.72,-46.03,51.8,57,48,11.41,GL,1593296147
540,Marsh Harbour,26.54,-77.06,83.66,66,0,7.52,BS,1593296147
541,Srednekolymsk,67.45,153.68,52.12,42,36,12.06,RU,1593296111
542,Valle Hermoso,25.67,-97.83,90.0,70,75,16.11,MX,1593296148
543,Mount Gambier,-37.83,140.77,39.2,93,0,8.05,AU,1593295864
544,Padilla,3.22,-76.31,80.6,61,75,11.41,CO,1593296148
545,Anadyr,64.75,177.48,39.0,64,75,20.13,RU,1593296148
546,Lagoa,39.05,-27.98,66.96,95,70,11.92,PT,1593296025
547,North Bend,43.41,-124.22,71.01,72,90,23.04,US,1593296148
548,Verāval,20.9,70.37,85.51,78,90,13.98,IN,1593295900
549,Broken Hill,-31.95,141.43,41.0,75,0,5.82,AU,1593295897
550,Carupano,10.67,-63.26,80.17,84,99,11.54,VE,1593296149
551,Cacequi,-29.88,-54.83,47.52,82,0,8.01,BR,1593296149
552,Kiunga,-6.12,141.29,74.48,96,92,3.2,PG,1593296150
553,Metro,-5.11,105.31,73.6,94,0,3.2,ID,1593296150
554,Koyima,8.7,-11.03,71.28,98,100,2.64,SL,1593296150
555,Mokhsogollokh,61.47,128.92,71.17,51,75,3.24,RU,1593296150
556,Villa Carlos Paz,-31.42,-64.5,53.01,46,100,5.82,AR,1593296150
557,Magdagachi,53.45,125.8,58.37,93,100,1.99,RU,1593296150
558,Gushikawa,26.35,127.87,82.4,83,20,13.87,JP,1593296150
559,Nhulunbuy,-12.23,136.77,71.6,94,27,5.82,AU,1593295893
560,Niterói,-22.88,-43.1,71.6,73,75,9.17,BR,1593296151
561,Zaraza,9.35,-65.32,79.48,88,81,6.31,VE,1593296151
562,Albert Lea,43.65,-93.37,84.99,45,40,6.15,US,1593296022
563,Luena,-11.78,19.92,55.04,40,0,4.03,AO,1593296151
564,Talnakh,69.49,88.4,59.0,87,76,6.71,RU,1593296109
565,Sisimiut,66.94,-53.67,43.0,81,61,5.32,GL,1593296151
566,Kostomuksha,64.57,30.58,52.5,59,93,3.87,RU,1593296151
567,Along,28.17,94.77,71.87,89,98,0.78,IN,1593296151
568,Minas,-34.38,-55.24,50.0,81,28,3.36,UY,1593296151
569,Constitución,-35.33,-72.42,53.67,84,100,2.66,CL,1593296152
570,Waddān,29.16,16.14,79.43,39,0,13.53,LY,1593296152
571,Nome,64.5,-165.41,44.6,93,90,23.04,US,1593296152
572,Carmagnola,44.85,7.72,69.01,89,36,3.0,IT,1593296152
573,Bilibino,68.05,166.44,41.74,62,56,10.49,RU,1593296152
574,Alenquer,-1.94,-54.74,84.2,79,20,9.17,BR,1593296152
575,Taoudenni,22.68,-3.98,101.71,8,0,10.25,ML,1593296152
576,Dunedin,-45.87,170.5,51.01,92,100,6.22,NZ,1593296152
